{"黑龙江": {
  "哈尔滨市": {
    "尚志市": [
      {
        "province": "黑龙江",
        "city": "哈尔滨市",
        "district": "尚志市",
        "middle_address": "亚布力镇",
        "show_address": "九丰家园小区",
        "full_address": "黑龙江哈尔滨市尚志市亚布力镇九丰家园小区",
        "id": "4e35d9bb33aa78576a9dbce49d36927a",
        "article_source": [
          {
            "title": "哈市公布新增7例确诊患者活动轨迹",
            "url": "https://news.sina.com.cn/c/2020-02-09/doc-iimxyqvz1409411.shtml"
          }
        ],
        "cnt_sum_certain": "1",
        "release_date": "20200209",
        "lng": "128.620544",
        "lat": "44.930511",
        "source": [],
        "communitytype": 2,
        "distance": -1
      },
      {
        "province": "黑龙江",
        "city": "哈尔滨市",
        "district": "尚志市",
        "middle_address": "亚布力镇",
        "show_address": "太平洋超市（和平商厦店）",
        "full_address": "黑龙江哈尔滨市尚志市亚布力镇太平洋超市（和平商厦店）",
        "id": "c71c3b32469c1e3150c3509616b1d62e",
        "article_source": [
          {
            "title": "哈市公布新增7例确诊患者活动轨迹",
            "url": "https://news.sina.com.cn/c/2020-02-09/doc-iimxyqvz1409411.shtml"
          }
        ],
        "cnt_sum_certain": "1",
        "release_date": "20200209",
        "lng": "128.611252",
        "lat": "44.930882",
        "source": [],
        "communitytype": 2,
        "distance": -1
      },
      {
        "province": "黑龙江",
        "city": "哈尔滨市",
        "district": "尚志市",
        "middle_address": "亚布力镇",
        "show_address": "亚布力镇站前综合楼",
        "full_address": "黑龙江哈尔滨市尚志市亚布力镇亚布力镇站前综合楼",
        "id": "131e8e84bdebc58850216afe7eecb372",
        "article_source": [
          {
            "title": "哈市公布新增7例确诊患者活动轨迹",
            "url": "https://news.sina.com.cn/c/2020-02-09/doc-iimxyqvz1409411.shtml"
          }
        ],
        "cnt_sum_certain": "1",
        "release_date": "20200209",
        "lng": "128.61496",
        "lat": "44.929539",
        "source": [],
        "communitytype": 2,
        "distance": -1
      },
      {
        "province": "黑龙江",
        "city": "哈尔滨市",
        "district": "尚志市",
        "middle_address": "亚布力镇",
        "show_address": "亚布力林业局职工医院",
        "full_address": "黑龙江哈尔滨市尚志市亚布力镇亚布力林业局职工医院",
        "id": "af2eaad6dd0c261b1e1a46204fd77bbe",
        "article_source": [
          {
            "title": "哈市公布新增7例确诊患者活动轨迹",
            "url": "https://news.sina.com.cn/c/2020-02-09/doc-iimxyqvz1409411.shtml"
          }
        ],
        "cnt_sum_certain": "1",
        "release_date": "20200209",
        "lng": "128.625076",
        "lat": "44.94521",
        "source": [],
        "communitytype": 2,
        "distance": -1
      },
      {
        "province": "黑龙江",
        "city": "哈尔滨市",
        "district": "尚志市",
        "middle_address": "金牌大道25号",
        "show_address": "亚布力森林温泉酒店",
        "full_address": "黑龙江哈尔滨市尚志市金牌大道25号亚布力森林温泉酒店",
        "id": "b8eb7751061a74767fb14e1b7d386b52",
        "article_source": [
          {
            "title": "哈尔滨公布2月3日零时前43例确诊患者活动轨迹",
            "url": "http://hlj.people.com.cn/GB/n2/2020/0207/c220027-33775478.html"
          },
          {
            "title": "哈尔滨公布2月3日零时前43例确诊患者活动轨迹",
            "url": "http://hlj.people.com.cn/GB/n2/2020/0207/c220027-33775478.html"
          },
          {
            "title": "哈尔滨公布2月3日零时前43例确诊患者活动轨迹",
            "url": "http://hlj.people.com.cn/GB/n2/2020/0207/c220027-33775478.html"
          }
        ],
        "cnt_sum_certain": "3",
        "release_date": "20200207",
        "lng": "128.485916",
        "lat": "44.792709",
        "source": [],
        "communitytype": 2,
        "distance": -1
      },
      {
        "province": "黑龙江",
        "city": "哈尔滨市",
        "district": "尚志市",
        "middle_address": "亚布力镇",
        "show_address": "雪乡醉美客栈",
        "full_address": "黑龙江哈尔滨市尚志市亚布力镇雪乡醉美客栈",
        "id": "c0d2fee16764f5324f0afa8db7b3a109",
        "article_source": [
          {
            "title": "哈尔滨公布2月3日零时前43例确诊患者活动轨迹",
            "url": "http://hlj.people.com.cn/GB/n2/2020/0207/c220027-33775478.html"
          },
          {
            "title": "哈尔滨公布2月3日零时前43例确诊患者活动轨迹",
            "url": "http://hlj.people.com.cn/GB/n2/2020/0207/c220027-33775478.html"
          },
          {
            "title": "哈尔滨公布2月3日零时前43例确诊患者活动轨迹",
            "url": "http://hlj.people.com.cn/GB/n2/2020/0207/c220027-33775478.html"
          }
        ],
        "cnt_sum_certain": "3",
        "release_date": "20200207",
        "lng": "128.595078",
        "lat": "44.931843",
        "source": [],
        "communitytype": 2,
        "distance": -1
      }
    ],
    "巴彦县": [
      {
        "province": "黑龙江",
        "city": "哈尔滨市",
        "district": "巴彦县",
        "middle_address": "",
        "show_address": "宏凯药店第六十连锁店",
        "full_address": "黑龙江哈尔滨市巴彦县宏凯药店第六十连锁店",
        "id": "d22fc91addd82bed8f356a45655ef978",
        "article_source": [
          {
            "title": "哈市公布新增7例确诊患者活动轨迹",
            "url": "https://news.sina.com.cn/c/2020-02-09/doc-iimxyqvz1409411.shtml"
          }
        ],
        "cnt_sum_certain": "1",
        "release_date": "20200209",
        "lng": "127.107872",
        "lat": "46.440807",
        "source": [],
        "communitytype": 2,
        "distance": -1
      },
      {
        "province": "黑龙江",
        "city": "哈尔滨市",
        "district": "巴彦县",
        "middle_address": "人寿楼下",
        "show_address": "老四季鲜菜店",
        "full_address": "黑龙江哈尔滨市巴彦县人寿楼下老四季鲜菜店",
        "id": "4091a50e63276ed887276130244c13a4",
        "article_source": [
          {
            "title": "哈市公布新增7例确诊患者活动轨迹",
            "url": "https://news.sina.com.cn/c/2020-02-09/doc-iimxyqvz1409411.shtml"
          }
        ],
        "cnt_sum_certain": "1",
        "release_date": "20200209",
        "lng": "127.405952",
        "lat": "46.082642",
        "source": [],
        "communitytype": 2,
        "distance": -1
      },
      {
        "province": "黑龙江",
        "city": "哈尔滨市",
        "district": "巴彦县",
        "middle_address": "",
        "show_address": "巴彦县人民医院",
        "full_address": "黑龙江哈尔滨市巴彦县巴彦县人民医院",
        "id": "ecf6e10390ac16283a810e5bdda85698",
        "article_source": [
          {
            "title": "哈市公布新增7例确诊患者活动轨迹",
            "url": "https://news.sina.com.cn/c/2020-02-09/doc-iimxyqvz1409411.shtml"
          }
        ],
        "cnt_sum_certain": "1",
        "release_date": "20200209",
        "lng": "127.385201",
        "lat": "46.087059",
        "source": [],
        "communitytype": 2,
        "distance": -1
      },
      {
        "province": "黑龙江",
        "city": "哈尔滨市",
        "district": "巴彦县",
        "middle_address": "巴彦镇集市路腾飞糕点厂附近",
        "show_address": "洗浴池",
        "full_address": "黑龙江哈尔滨市巴彦县巴彦镇集市路腾飞糕点厂附近洗浴池",
        "id": "c789fee1385d13107d66cd4f367d4614",
        "article_source": [
          {
            "title": "哈尔滨公布2月3日零时前43例确诊患者活动轨迹",
            "url": "http://hlj.people.com.cn/GB/n2/2020/0207/c220027-33775478.html"
          },
          {
            "title": "哈尔滨公布2月3日零时前43例确诊患者活动轨迹",
            "url": "http://hlj.people.com.cn/GB/n2/2020/0207/c220027-33775478.html"
          }
        ],
        "cnt_sum_certain": "2",
        "release_date": "20200207",
        "lng": "127.406364",
        "lat": "46.079403",
        "source": [],
        "communitytype": 2,
        "distance": -1
      },
      {
        "province": "黑龙江",
        "city": "哈尔滨市",
        "district": "巴彦县",
        "middle_address": "巴彦镇通兴路",
        "show_address": "巴彦县人民医院",
        "full_address": "黑龙江哈尔滨市巴彦县巴彦镇通兴路巴彦县人民医院",
        "id": "5055159896d23188e3a01a54c6b83e7c",
        "article_source": [
          {
            "title": "哈尔滨公布2月3日零时前43例确诊患者活动轨迹",
            "url": "http://hlj.people.com.cn/GB/n2/2020/0207/c220027-33775478.html"
          },
          {
            "title": "哈尔滨公布2月3日零时前43例确诊患者活动轨迹",
            "url": "http://hlj.people.com.cn/GB/n2/2020/0207/c220027-33775478.html"
          }
        ],
        "cnt_sum_certain": "2",
        "release_date": "20200207",
        "lng": "127.387527",
        "lat": "46.086521",
        "source": [],
        "communitytype": 2,
        "distance": -1
      },
      {
        "province": "黑龙江",
        "city": "哈尔滨市",
        "district": "巴彦县",
        "middle_address": "华山乡少陵村",
        "show_address": "华山乡少陵村",
        "full_address": "黑龙江哈尔滨市巴彦县华山乡少陵村华山乡少陵村",
        "id": "564cd05e5041203b69d4c017a9eed58b",
        "article_source": [
          {
            "title": "哈尔滨公布2月3日零时前43例确诊患者活动轨迹",
            "url": "http://hlj.people.com.cn/GB/n2/2020/0207/c220027-33775478.html"
          }
        ],
        "cnt_sum_certain": "1",
        "release_date": "20200207",
        "lng": "127.351639",
        "lat": "46.185219",
        "source": [],
        "communitytype": 2,
        "distance": -1
      }
    ],
    "南岗区": [
      {
        "province": "黑龙江",
        "city": "哈尔滨市",
        "district": "南岗区",
        "middle_address": "邮政街23号",
        "show_address": "哈医大一院",
        "full_address": "黑龙江哈尔滨市南岗区邮政街23号哈医大一院",
        "id": "fbf7d1980bf31d3f101d63d9a809827f",
        "article_source": [
          {
            "title": "哈尔滨公布2月3日零时前43例确诊患者活动轨迹",
            "url": "http://hlj.people.com.cn/GB/n2/2020/0207/c220027-33775478.html"
          }
        ],
        "cnt_sum_certain": "1",
        "release_date": "20200207",
        "lng": "126.64894",
        "lat": "45.76621",
        "source": [],
        "communitytype": 2,
        "distance": -1
      },
      {
        "province": "黑龙江",
        "city": "哈尔滨市",
        "district": "南岗区",
        "middle_address": "",
        "show_address": "凯德广场（学府路店）",
        "full_address": "黑龙江哈尔滨市南岗区凯德广场（学府路店）",
        "id": "12263b6a8931e7724e801d541a5bbb64",
        "article_source": [
          {
            "title": "哈尔滨公布2月3日零时前43例确诊患者活动轨迹",
            "url": "http://hlj.people.com.cn/GB/n2/2020/0207/c220027-33775478.html"
          }
        ],
        "cnt_sum_certain": "1",
        "release_date": "20200207",
        "lng": "126.609459",
        "lat": "45.721401",
        "source": [],
        "communitytype": 2,
        "distance": -1
      },
      {
        "province": "黑龙江",
        "city": "哈尔滨市",
        "district": "南岗区",
        "middle_address": "哈尔滨大街529号",
        "show_address": "东谷青阁酒店",
        "full_address": "黑龙江哈尔滨市南岗区哈尔滨大街529号东谷青阁酒店",
        "id": "d73de70754b0e23f34ad1b54f70f02fd",
        "article_source": [
          {
            "title": "哈尔滨公布2月3日零时前43例确诊患者活动轨迹",
            "url": "http://hlj.people.com.cn/GB/n2/2020/0207/c220027-33775478.html"
          },
          {
            "title": "哈尔滨公布2月3日零时前43例确诊患者活动轨迹",
            "url": "http://hlj.people.com.cn/GB/n2/2020/0207/c220027-33775478.html"
          },
          {
            "title": "哈尔滨公布2月3日零时前43例确诊患者活动轨迹",
            "url": "http://hlj.people.com.cn/GB/n2/2020/0207/c220027-33775478.html"
          }
        ],
        "cnt_sum_certain": "3",
        "release_date": "20200207",
        "lng": "126.580811",
        "lat": "45.699142",
        "source": [],
        "communitytype": 2,
        "distance": -1
      },
      {
        "province": "黑龙江",
        "city": "哈尔滨市",
        "district": "南岗区",
        "middle_address": "征仪路436号",
        "show_address": "大众新城小区",
        "full_address": "黑龙江哈尔滨市南岗区征仪路436号大众新城小区",
        "id": "41100b0c5df80c262c9bc99266ee59cc",
        "article_source": [
          {
            "title": "哈尔滨公布2月3日零时前43例确诊患者活动轨迹",
            "url": "http://hlj.people.com.cn/GB/n2/2020/0207/c220027-33775478.html"
          },
          {
            "title": "哈尔滨公布2月3日零时前43例确诊患者活动轨迹",
            "url": "http://hlj.people.com.cn/GB/n2/2020/0207/c220027-33775478.html"
          },
          {
            "title": "哈尔滨公布2月3日零时前43例确诊患者活动轨迹",
            "url": "http://hlj.people.com.cn/GB/n2/2020/0207/c220027-33775478.html"
          }
        ],
        "cnt_sum_certain": "3",
        "release_date": "20200207",
        "lng": "126.63457",
        "lat": "45.69663",
        "source": [],
        "communitytype": 2,
        "distance": -1
      },
      {
        "province": "黑龙江",
        "city": "哈尔滨市",
        "district": "南岗区",
        "middle_address": "学府路246号",
        "show_address": "哈医大二院",
        "full_address": "黑龙江哈尔滨市南岗区学府路246号哈医大二院",
        "id": "c4f27f947eeb8378fe1d992c7de87922",
        "article_source": [
          {
            "title": "哈尔滨公布2月3日零时前43例确诊患者活动轨迹",
            "url": "http://hlj.people.com.cn/GB/n2/2020/0207/c220027-33775478.html"
          },
          {
            "title": "哈尔滨公布2月3日零时前43例确诊患者活动轨迹",
            "url": "http://hlj.people.com.cn/GB/n2/2020/0207/c220027-33775478.html"
          },
          {
            "title": "哈尔滨公布2月3日零时前43例确诊患者活动轨迹",
            "url": "http://hlj.people.com.cn/GB/n2/2020/0207/c220027-33775478.html"
          },
          {
            "title": "哈尔滨公布2月3日零时前43例确诊患者活动轨迹",
            "url": "http://hlj.people.com.cn/GB/n2/2020/0207/c220027-33775478.html"
          }
        ],
        "cnt_sum_certain": "4",
        "release_date": "20200207",
        "lng": "126.61897",
        "lat": "45.69707",
        "source": [],
        "communitytype": 2,
        "distance": -1
      },
      {
        "province": "黑龙江",
        "city": "哈尔滨市",
        "district": "南岗区",
        "middle_address": "铁路街1号",
        "show_address": "哈尔滨站",
        "full_address": "黑龙江哈尔滨市南岗区铁路街1号哈尔滨站",
        "id": "5c71dfcb8bfe0bbbd8fce25848c3ae19",
        "article_source": [
          {
            "title": "哈尔滨公布2月3日零时前43例确诊患者活动轨迹",
            "url": "http://hlj.people.com.cn/GB/n2/2020/0207/c220027-33775478.html"
          }
        ],
        "cnt_sum_certain": "1",
        "release_date": "20200207",
        "lng": "126.63357",
        "lat": "45.7611",
        "source": [],
        "communitytype": 2,
        "distance": -1
      }
    ],
    "香坊区": [
      {
        "province": "黑龙江",
        "city": "哈尔滨市",
        "district": "香坊区",
        "middle_address": "公滨路309号",
        "show_address": "市传染病院",
        "full_address": "黑龙江哈尔滨市香坊区公滨路309号市传染病院",
        "id": "377def8af8c3a06d329e85c83555a94a",
        "article_source": [
          {
            "title": "哈尔滨公布2月3日零时前43例确诊患者活动轨迹",
            "url": "http://hlj.people.com.cn/GB/n2/2020/0207/c220027-33775478.html"
          },
          {
            "title": "哈尔滨公布2月3日零时前43例确诊患者活动轨迹",
            "url": "http://hlj.people.com.cn/GB/n2/2020/0207/c220027-33775478.html"
          },
          {
            "title": "哈尔滨公布2月3日零时前43例确诊患者活动轨迹",
            "url": "http://hlj.people.com.cn/GB/n2/2020/0207/c220027-33775478.html"
          },
          {
            "title": "哈尔滨公布2月3日零时前43例确诊患者活动轨迹",
            "url": "http://hlj.people.com.cn/GB/n2/2020/0207/c220027-33775478.html"
          },
          {
            "title": "哈尔滨公布2月3日零时前43例确诊患者活动轨迹",
            "url": "http://hlj.people.com.cn/GB/n2/2020/0207/c220027-33775478.html"
          },
          {
            "title": "哈尔滨公布2月3日零时前43例确诊患者活动轨迹",
            "url": "http://hlj.people.com.cn/GB/n2/2020/0207/c220027-33775478.html"
          },
          {
            "title": "哈尔滨公布2月3日零时前43例确诊患者活动轨迹",
            "url": "http://hlj.people.com.cn/GB/n2/2020/0207/c220027-33775478.html"
          },
          {
            "title": "哈尔滨公布2月3日零时前43例确诊患者活动轨迹",
            "url": "http://hlj.people.com.cn/GB/n2/2020/0207/c220027-33775478.html"
          }
        ],
        "cnt_sum_certain": "8",
        "release_date": "20200207",
        "lng": "126.69976",
        "lat": "45.7318",
        "source": [],
        "communitytype": 2,
        "distance": -1
      },
      {
        "province": "黑龙江",
        "city": "哈尔滨市",
        "district": "香坊区",
        "middle_address": "中山路82号",
        "show_address": "省医院",
        "full_address": "黑龙江哈尔滨市香坊区中山路82号省医院",
        "id": "3fd6a4bb3443592069f62fb09f71fd29",
        "article_source": [
          {
            "title": "哈尔滨公布2月3日零时前43例确诊患者活动轨迹",
            "url": "http://hlj.people.com.cn/GB/n2/2020/0207/c220027-33775478.html"
          },
          {
            "title": "哈尔滨公布2月3日零时前43例确诊患者活动轨迹",
            "url": "http://hlj.people.com.cn/GB/n2/2020/0207/c220027-33775478.html"
          }
        ],
        "cnt_sum_certain": "2",
        "release_date": "20200207",
        "lng": "126.67328",
        "lat": "45.72929",
        "source": [],
        "communitytype": 2,
        "distance": -1
      },
      {
        "province": "黑龙江",
        "city": "哈尔滨市",
        "district": "香坊区",
        "middle_address": "公滨路574号",
        "show_address": "恒祥中山小区",
        "full_address": "黑龙江哈尔滨市香坊区公滨路574号恒祥中山小区",
        "id": "198d52d3197bb4203ee1020d13990a7d",
        "article_source": [
          {
            "title": "哈尔滨公布2月3日零时前43例确诊患者活动轨迹",
            "url": "http://hlj.people.com.cn/GB/n2/2020/0207/c220027-33775478.html"
          }
        ],
        "cnt_sum_certain": "1",
        "release_date": "20200207",
        "lng": "126.67191",
        "lat": "45.72559",
        "source": [],
        "communitytype": 2,
        "distance": -1
      },
      {
        "province": "黑龙江",
        "city": "哈尔滨市",
        "district": "香坊区",
        "middle_address": "中山路82号",
        "show_address": "黑龙江省医院",
        "full_address": "黑龙江哈尔滨市香坊区中山路82号黑龙江省医院",
        "id": "6b4bac6cef656dcebcd6a1e578e74da7",
        "article_source": [
          {
            "title": "哈尔滨公布2月3日零时前43例确诊患者活动轨迹",
            "url": "http://hlj.people.com.cn/GB/n2/2020/0207/c220027-33775478.html"
          }
        ],
        "cnt_sum_certain": "1",
        "release_date": "20200207",
        "lng": "126.67328",
        "lat": "45.72929",
        "source": [],
        "communitytype": 2,
        "distance": -1
      },
      {
        "province": "黑龙江",
        "city": "哈尔滨市",
        "district": "香坊区",
        "middle_address": "",
        "show_address": "幸福镇信义村",
        "full_address": "黑龙江哈尔滨市香坊区幸福镇信义村",
        "id": "fb8ad13c3c5e7b7395e32ecf36f4f9fd",
        "article_source": [
          {
            "title": "哈尔滨公布2月3日零时前43例确诊患者活动轨迹",
            "url": "http://hlj.people.com.cn/GB/n2/2020/0207/c220027-33775478.html"
          }
        ],
        "cnt_sum_certain": "1",
        "release_date": "20200207",
        "lng": "126.73671",
        "lat": "45.736439",
        "source": [],
        "communitytype": 2,
        "distance": -1
      },
      {
        "province": "黑龙江",
        "city": "哈尔滨市",
        "district": "香坊区",
        "middle_address": "长江路与化工路交叉口",
        "show_address": "长江路与化工路口",
        "full_address": "黑龙江哈尔滨市香坊区长江路与化工路交叉口长江路与化工路口",
        "id": "63fd6685f4256f9b26cc7a14d90af2e8",
        "article_source": [
          {
            "title": "哈尔滨公布2月3日零时前43例确诊患者活动轨迹",
            "url": "http://hlj.people.com.cn/GB/n2/2020/0207/c220027-33775478.html"
          }
        ],
        "cnt_sum_certain": "1",
        "release_date": "20200207",
        "lng": "126.7339",
        "lat": "45.75543",
        "source": [],
        "communitytype": 2,
        "distance": -1
      },
      {
        "province": "黑龙江",
        "city": "哈尔滨市",
        "district": "香坊区",
        "middle_address": "木材东街副2-1",
        "show_address": "河畔花园",
        "full_address": "黑龙江哈尔滨市香坊区木材东街副2-1河畔花园",
        "id": "13838a70f3a0455c6a0c92e88c99c027",
        "article_source": [
          {
            "title": "哈尔滨公布2月3日零时前43例确诊患者活动轨迹",
            "url": "http://hlj.people.com.cn/GB/n2/2020/0207/c220027-33775478.html"
          },
          {
            "title": "哈尔滨公布2月3日零时前43例确诊患者活动轨迹",
            "url": "http://hlj.people.com.cn/GB/n2/2020/0207/c220027-33775478.html"
          }
        ],
        "cnt_sum_certain": "2",
        "release_date": "20200207",
        "lng": "126.723923",
        "lat": "45.723412",
        "source": [],
        "communitytype": 2,
        "distance": -1
      }
    ],
    "道外区": [
      {
        "province": "黑龙江",
        "city": "哈尔滨市",
        "district": "道外区",
        "middle_address": "承德街287号",
        "show_address": "道外客运站",
        "full_address": "黑龙江哈尔滨市道外区承德街287号道外客运站",
        "id": "49173f34df1505610af441f4c16d6a2d",
        "article_source": [
          {
            "title": "哈尔滨公布2月3日零时前43例确诊患者活动轨迹",
            "url": "http://hlj.people.com.cn/GB/n2/2020/0207/c220027-33775478.html"
          }
        ],
        "cnt_sum_certain": "1",
        "release_date": "20200207",
        "lng": "126.64201",
        "lat": "45.77789",
        "source": [],
        "communitytype": 2,
        "distance": -1
      },
      {
        "province": "黑龙江",
        "city": "哈尔滨市",
        "district": "道外区",
        "middle_address": "南马路",
        "show_address": "地利生鲜",
        "full_address": "黑龙江哈尔滨市道外区南马路地利生鲜",
        "id": "a412e76bf121972b7af4fdd04f4cf596",
        "article_source": [
          {
            "title": "哈尔滨公布2月3日零时前43例确诊患者活动轨迹",
            "url": "http://hlj.people.com.cn/GB/n2/2020/0207/c220027-33775478.html"
          }
        ],
        "cnt_sum_certain": "1",
        "release_date": "20200207",
        "lng": "126.632896",
        "lat": "45.772942",
        "source": [],
        "communitytype": 2,
        "distance": -1
      }
    ],
    "木兰县": [
      {
        "province": "黑龙江",
        "city": "哈尔滨市",
        "district": "木兰县",
        "middle_address": "",
        "show_address": "东兴镇",
        "full_address": "黑龙江哈尔滨市木兰县东兴镇",
        "id": "96549bfefb8efa07c0022ccf192db4d4",
        "article_source": [
          {
            "title": "哈尔滨公布2月3日零时前43例确诊患者活动轨迹",
            "url": "http://hlj.people.com.cn/GB/n2/2020/0207/c220027-33775478.html"
          }
        ],
        "cnt_sum_certain": "1",
        "release_date": "20200207",
        "lng": "127.871712",
        "lat": "46.38271",
        "source": [],
        "communitytype": 2,
        "distance": -1
      },
      {
        "province": "黑龙江",
        "city": "哈尔滨市",
        "district": "木兰县",
        "middle_address": "东兴镇东北村庆木公路",
        "show_address": "第二人民医院",
        "full_address": "黑龙江哈尔滨市木兰县东兴镇东北村庆木公路第二人民医院",
        "id": "8458f3c2dab3df5d8068ccbfcd9acfe9",
        "article_source": [
          {
            "title": "哈尔滨公布2月3日零时前43例确诊患者活动轨迹",
            "url": "http://hlj.people.com.cn/GB/n2/2020/0207/c220027-33775478.html"
          }
        ],
        "cnt_sum_certain": "1",
        "release_date": "20200207",
        "lng": "127.870071",
        "lat": "46.377838",
        "source": [],
        "communitytype": 2,
        "distance": -1
      },
      {
        "province": "黑龙江",
        "city": "哈尔滨市",
        "district": "木兰县",
        "middle_address": "保健街",
        "show_address": "木兰县人民医院",
        "full_address": "黑龙江哈尔滨市木兰县保健街木兰县人民医院",
        "id": "cbbb70cced9d7008d6ff92a11b4ca8bd",
        "article_source": [
          {
            "title": "哈尔滨公布2月3日零时前43例确诊患者活动轨迹",
            "url": "http://hlj.people.com.cn/GB/n2/2020/0207/c220027-33775478.html"
          }
        ],
        "cnt_sum_certain": "1",
        "release_date": "20200207",
        "lng": "128.045944",
        "lat": "45.951752",
        "source": [],
        "communitytype": 2,
        "distance": -1
      }
    ],
    "道里区": [
      {
        "province": "黑龙江",
        "city": "哈尔滨市",
        "district": "道里区",
        "middle_address": "",
        "show_address": "中央大街",
        "full_address": "黑龙江哈尔滨市道里区中央大街",
        "id": "a68bb76cb0caea7dad412fce9e513387",
        "article_source": [
          {
            "title": "哈尔滨公布2月3日零时前43例确诊患者活动轨迹",
            "url": "http://hlj.people.com.cn/GB/n2/2020/0207/c220027-33775478.html"
          },
          {
            "title": "哈尔滨公布2月3日零时前43例确诊患者活动轨迹",
            "url": "http://hlj.people.com.cn/GB/n2/2020/0207/c220027-33775478.html"
          },
          {
            "title": "哈尔滨公布2月3日零时前43例确诊患者活动轨迹",
            "url": "http://hlj.people.com.cn/GB/n2/2020/0207/c220027-33775478.html"
          }
        ],
        "cnt_sum_certain": "3",
        "release_date": "20200207",
        "lng": "126.61686",
        "lat": "45.75567",
        "source": [],
        "communitytype": 2,
        "distance": -1
      },
      {
        "province": "黑龙江",
        "city": "哈尔滨市",
        "district": "道里区",
        "middle_address": "中央大街69号",
        "show_address": "金安国际购物广场",
        "full_address": "黑龙江哈尔滨市道里区中央大街69号金安国际购物广场",
        "id": "9e71b23d7983b4e2c00f1bb6dc9beb70",
        "article_source": [
          {
            "title": "哈尔滨公布2月3日零时前43例确诊患者活动轨迹",
            "url": "http://hlj.people.com.cn/GB/n2/2020/0207/c220027-33775478.html"
          }
        ],
        "cnt_sum_certain": "1",
        "release_date": "20200207",
        "lng": "126.61956",
        "lat": "45.77134",
        "source": [],
        "communitytype": 2,
        "distance": -1
      },
      {
        "province": "黑龙江",
        "city": "哈尔滨市",
        "district": "道里区",
        "middle_address": "买卖街",
        "show_address": "全赢超市",
        "full_address": "黑龙江哈尔滨市道里区买卖街全赢超市",
        "id": "097ab11d1665308d27786b3b8b3b7479",
        "article_source": [
          {
            "title": "哈尔滨公布2月3日零时前43例确诊患者活动轨迹",
            "url": "http://hlj.people.com.cn/GB/n2/2020/0207/c220027-33775478.html"
          }
        ],
        "cnt_sum_certain": "1",
        "release_date": "20200207",
        "lng": "126.658257",
        "lat": "45.757912",
        "source": [],
        "communitytype": 2,
        "distance": -1
      },
      {
        "province": "黑龙江",
        "city": "哈尔滨市",
        "district": "道里区",
        "middle_address": "地段街151号",
        "show_address": "市第一医院",
        "full_address": "黑龙江哈尔滨市道里区地段街151号市第一医院",
        "id": "2626ad65ad5fe48e9685b07b8b91c659",
        "article_source": [
          {
            "title": "哈尔滨公布2月3日零时前43例确诊患者活动轨迹",
            "url": "http://hlj.people.com.cn/GB/n2/2020/0207/c220027-33775478.html"
          },
          {
            "title": "哈尔滨公布2月3日零时前43例确诊患者活动轨迹",
            "url": "http://hlj.people.com.cn/GB/n2/2020/0207/c220027-33775478.html"
          }
        ],
        "cnt_sum_certain": "2",
        "release_date": "20200207",
        "lng": "126.62743",
        "lat": "45.77297",
        "source": [],
        "communitytype": 2,
        "distance": -1
      }
    ],
    "阿城区": [
      {
        "province": "黑龙江",
        "city": "哈尔滨市",
        "district": "阿城区",
        "middle_address": "团结胡同附近",
        "show_address": "金都社区金都首府2号楼",
        "full_address": "黑龙江哈尔滨市阿城区团结胡同附近金都社区金都首府2号楼",
        "id": "3981d63274fa5d0d55b6ff0c643292a1",
        "article_source": [
          {
            "title": "哈尔滨公布2月3日零时前43例确诊患者活动轨迹",
            "url": "http://hlj.people.com.cn/GB/n2/2020/0207/c220027-33775478.html"
          }
        ],
        "cnt_sum_certain": "1",
        "release_date": "20200207",
        "lng": "126.972633",
        "lat": "45.529343",
        "source": [],
        "communitytype": 2,
        "distance": -1
      },
      {
        "province": "黑龙江",
        "city": "哈尔滨市",
        "district": "阿城区",
        "middle_address": "红星镇海兴村",
        "show_address": "大楼屯",
        "full_address": "黑龙江哈尔滨市阿城区红星镇海兴村大楼屯",
        "id": "a69d797fe57a5667195cfae3cfbce85f",
        "article_source": [
          {
            "title": "哈尔滨公布2月3日零时前43例确诊患者活动轨迹",
            "url": "http://hlj.people.com.cn/GB/n2/2020/0207/c220027-33775478.html"
          },
          {
            "title": "哈尔滨公布2月3日零时前43例确诊患者活动轨迹",
            "url": "http://hlj.people.com.cn/GB/n2/2020/0207/c220027-33775478.html"
          }
        ],
        "cnt_sum_certain": "2",
        "release_date": "20200207",
        "lng": "127.066658",
        "lat": "45.56213",
        "source": [],
        "communitytype": 2,
        "distance": -1
      },
      {
        "province": "黑龙江",
        "city": "哈尔滨市",
        "district": "阿城区",
        "middle_address": "龙晟园(黑纺路南100米)",
        "show_address": "龙晟小区",
        "full_address": "黑龙江哈尔滨市阿城区龙晟园(黑纺路南100米)龙晟小区",
        "id": "ec179e9a5c2b2ef7d46ca173ab534e92",
        "article_source": [
          {
            "title": "哈尔滨公布2月3日零时前43例确诊患者活动轨迹",
            "url": "http://hlj.people.com.cn/GB/n2/2020/0207/c220027-33775478.html"
          },
          {
            "title": "哈尔滨公布2月3日零时前43例确诊患者活动轨迹",
            "url": "http://hlj.people.com.cn/GB/n2/2020/0207/c220027-33775478.html"
          }
        ],
        "cnt_sum_certain": "2",
        "release_date": "20200207",
        "lng": "126.965599",
        "lat": "45.55265",
        "source": [],
        "communitytype": 2,
        "distance": -1
      },
      {
        "province": "黑龙江",
        "city": "哈尔滨市",
        "district": "阿城区",
        "middle_address": "永胜胡同49附近",
        "show_address": "金城小区",
        "full_address": "黑龙江哈尔滨市阿城区永胜胡同49附近金城小区",
        "id": "fec3614d59ef80a76de044f591d330ac",
        "article_source": [
          {
            "title": "哈尔滨公布2月3日零时前43例确诊患者活动轨迹",
            "url": "http://hlj.people.com.cn/GB/n2/2020/0207/c220027-33775478.html"
          },
          {
            "title": "哈尔滨公布2月3日零时前43例确诊患者活动轨迹",
            "url": "http://hlj.people.com.cn/GB/n2/2020/0207/c220027-33775478.html"
          }
        ],
        "cnt_sum_certain": "2",
        "release_date": "20200207",
        "lng": "126.9687",
        "lat": "45.54019",
        "source": [],
        "communitytype": 2,
        "distance": -1
      },
      {
        "province": "黑龙江",
        "city": "哈尔滨市",
        "district": "阿城区",
        "middle_address": "金都大街甲89号",
        "show_address": "人民医院发热门诊",
        "full_address": "黑龙江哈尔滨市阿城区金都大街甲89号人民医院发热门诊",
        "id": "de06afb1f6af74c6a52958088018babe",
        "article_source": [
          {
            "title": "哈尔滨公布2月3日零时前43例确诊患者活动轨迹",
            "url": "http://hlj.people.com.cn/GB/n2/2020/0207/c220027-33775478.html"
          },
          {
            "title": "哈尔滨公布2月3日零时前43例确诊患者活动轨迹",
            "url": "http://hlj.people.com.cn/GB/n2/2020/0207/c220027-33775478.html"
          },
          {
            "title": "哈尔滨公布2月3日零时前43例确诊患者活动轨迹",
            "url": "http://hlj.people.com.cn/GB/n2/2020/0207/c220027-33775478.html"
          },
          {
            "title": "哈尔滨公布2月3日零时前43例确诊患者活动轨迹",
            "url": "http://hlj.people.com.cn/GB/n2/2020/0207/c220027-33775478.html"
          }
        ],
        "cnt_sum_certain": "4",
        "release_date": "20200207",
        "lng": "126.99012",
        "lat": "45.53359",
        "source": [],
        "communitytype": 2,
        "distance": -1
      },
      {
        "province": "黑龙江",
        "city": "哈尔滨市",
        "district": "阿城区",
        "middle_address": "牌路大街653号",
        "show_address": "交通家园小区",
        "full_address": "黑龙江哈尔滨市阿城区牌路大街653号交通家园小区",
        "id": "5f86124ba4bb8a69899b30f621e48667",
        "article_source": [
          {
            "title": "哈尔滨公布2月3日零时前43例确诊患者活动轨迹",
            "url": "http://hlj.people.com.cn/GB/n2/2020/0207/c220027-33775478.html"
          }
        ],
        "cnt_sum_certain": "1",
        "release_date": "20200207",
        "lng": "126.97708",
        "lat": "45.55233",
        "source": [],
        "communitytype": 2,
        "distance": -1
      },
      {
        "province": "黑龙江",
        "city": "哈尔滨市",
        "district": "阿城区",
        "middle_address": "舍利街道",
        "show_address": "舍利新农村",
        "full_address": "黑龙江哈尔滨市阿城区舍利街道舍利新农村",
        "id": "55535a4a63687e586344c68fd230725d",
        "article_source": [
          {
            "title": "哈尔滨公布2月3日零时前43例确诊患者活动轨迹",
            "url": "http://hlj.people.com.cn/GB/n2/2020/0207/c220027-33775478.html"
          },
          {
            "title": "哈尔滨公布2月3日零时前43例确诊患者活动轨迹",
            "url": "http://hlj.people.com.cn/GB/n2/2020/0207/c220027-33775478.html"
          }
        ],
        "cnt_sum_certain": "2",
        "release_date": "20200207",
        "lng": "126.932892",
        "lat": "45.56374",
        "source": [],
        "communitytype": 2,
        "distance": -1
      },
      {
        "province": "黑龙江",
        "city": "哈尔滨市",
        "district": "阿城区",
        "middle_address": "新利街道",
        "show_address": "丁家屯",
        "full_address": "黑龙江哈尔滨市阿城区新利街道丁家屯",
        "id": "792cfc10c7446accdf00d00404d1094c",
        "article_source": [
          {
            "title": "哈尔滨公布2月3日零时前43例确诊患者活动轨迹",
            "url": "http://hlj.people.com.cn/GB/n2/2020/0207/c220027-33775478.html"
          }
        ],
        "cnt_sum_certain": "1",
        "release_date": "20200207",
        "lng": "126.86702",
        "lat": "45.64732",
        "source": [],
        "communitytype": 2,
        "distance": -1
      }
    ],
    "呼兰区": [
      {
        "province": "黑龙江",
        "city": "哈尔滨市",
        "district": "呼兰区",
        "middle_address": "志华路",
        "show_address": "志华名苑",
        "full_address": "黑龙江哈尔滨市呼兰区志华路志华名苑",
        "id": "affdda7a541316bb4f90d112466fc6ae",
        "article_source": [
          {
            "title": "哈尔滨公布2月3日零时前43例确诊患者活动轨迹",
            "url": "http://hlj.people.com.cn/GB/n2/2020/0207/c220027-33775478.html"
          }
        ],
        "cnt_sum_certain": "1",
        "release_date": "20200207",
        "lng": "126.596184",
        "lat": "45.976585",
        "source": [],
        "communitytype": 2,
        "distance": -1
      }
    ]
  },
  "绥化市": {
    "兰西县": [
      {
        "province": "黑龙江",
        "city": "绥化市",
        "district": "兰西县",
        "middle_address": "",
        "show_address": "平山镇",
        "full_address": "黑龙江绥化市兰西县平山镇",
        "id": "ffbc7364df190d04c8074447b3a9452d",
        "article_source": [
          {
            "title": "哈尔滨公布2月3日零时前43例确诊患者活动轨迹",
            "url": "http://hlj.people.com.cn/GB/n2/2020/0207/c220027-33775478.html"
          },
          {
            "title": "哈尔滨公布2月3日零时前43例确诊患者活动轨迹",
            "url": "http://hlj.people.com.cn/GB/n2/2020/0207/c220027-33775478.html"
          }
        ],
        "cnt_sum_certain": "2",
        "release_date": "20200207",
        "lng": "126.089699",
        "lat": "46.395",
        "source": [],
        "communitytype": 2,
        "distance": -1
      }
    ],
    "绥棱县": [
      {
        "province": "黑龙江",
        "city": "绥化市",
        "district": "绥棱县",
        "middle_address": "",
        "show_address": "绥棱县中医院",
        "full_address": "黑龙江绥化市绥棱县绥棱县中医院",
        "id": "fe69e7d080bfb4f7779327b7a698d384",
        "article_source": [
          {
            "title": "【扩散】绥化公布2月18日新增1例确诊病例行动轨迹",
            "url": "https://mp.weixin.qq.com/s/Rrlwxq_xzW7Yv98TWgOGMA"
          }
        ],
        "cnt_sum_certain": "1",
        "release_date": "20200219",
        "lng": "127.13195",
        "lat": "47.237629",
        "source": [],
        "communitytype": 2,
        "distance": -1
      },
      {
        "province": "黑龙江",
        "city": "绥化市",
        "district": "绥棱县",
        "middle_address": "",
        "show_address": "绥棱县人民医院",
        "full_address": "黑龙江绥化市绥棱县绥棱县人民医院",
        "id": "f188ff31050f98e5e4b76eb8a2b0550d",
        "article_source": [
          {
            "title": "【扩散】绥化公布2月18日新增1例确诊病例行动轨迹",
            "url": "https://mp.weixin.qq.com/s/Rrlwxq_xzW7Yv98TWgOGMA"
          }
        ],
        "cnt_sum_certain": "1",
        "release_date": "20200219",
        "lng": "127.105278",
        "lat": "47.238918",
        "source": [],
        "communitytype": 2,
        "distance": -1
      }
    ]
  },
  "哈尔滨": {
    "南岗区": [
      {
        "province": "黑龙江",
        "city": "哈尔滨",
        "district": "南岗区",
        "middle_address": "",
        "show_address": "省农垦总医院",
        "full_address": "黑龙江哈尔滨南岗区省农垦总医院",
        "id": "f4aa3bb4415aa54a1e0cb31e67916784",
        "article_source": [
          {
            "title": "【疫情速报】2月18日哈尔滨市新增2例确诊患者活动轨迹",
            "url": "https://mp.weixin.qq.com/s/93EJ22aSUJ01Nl-9_-IJtw"
          }
        ],
        "cnt_sum_certain": "1",
        "release_date": "20200219",
        "lng": "126.560684",
        "lat": "45.682056",
        "source": [],
        "communitytype": 2,
        "distance": -1
      },
      {
        "province": "黑龙江",
        "city": "哈尔滨",
        "district": "南岗区",
        "middle_address": "",
        "show_address": "哈医大二院",
        "full_address": "黑龙江哈尔滨南岗区哈医大二院",
        "id": "8d9d260fa143911b8ed43f784537859f",
        "article_source": [
          {
            "title": "【疫情速报】2月18日哈尔滨市新增2例确诊患者活动轨迹",
            "url": "https://mp.weixin.qq.com/s/93EJ22aSUJ01Nl-9_-IJtw"
          }
        ],
        "cnt_sum_certain": "1",
        "release_date": "20200219",
        "lng": "126.624939",
        "lat": "45.696819",
        "source": [],
        "communitytype": 2,
        "distance": -1
      },
      {
        "province": "黑龙江",
        "city": "哈尔滨",
        "district": "南岗区",
        "middle_address": "",
        "show_address": "三环信息苑小区",
        "full_address": "黑龙江哈尔滨南岗区三环信息苑小区",
        "id": "7aafb8aeef78a5811a30fed4e81432d3",
        "article_source": [
          {
            "title": "【疫情速报】2月18日哈尔滨市新增2例确诊患者活动轨迹",
            "url": "https://mp.weixin.qq.com/s/93EJ22aSUJ01Nl-9_-IJtw"
          }
        ],
        "cnt_sum_certain": "1",
        "release_date": "20200219",
        "lng": "126.624329",
        "lat": "45.663204",
        "source": [],
        "communitytype": 2,
        "distance": -1
      },
      {
        "province": "黑龙江",
        "city": "哈尔滨",
        "district": "南岗区",
        "middle_address": "",
        "show_address": "哈医大四院",
        "full_address": "黑龙江哈尔滨南岗区哈医大四院",
        "id": "7551c3415b86e81ac22a7f875d498752",
        "article_source": [
          {
            "title": "哈尔滨市公布新增3例确诊患者活动轨迹",
            "url": "http://www.harbin.gov.cn/art/2020/2/21/art_98_877079.html"
          }
        ],
        "cnt_sum_certain": "1",
        "release_date": "20200221",
        "lng": "126.631012",
        "lat": "45.75156",
        "source": [],
        "communitytype": 2,
        "distance": -1
      }
    ],
    "道里区": [
      {
        "province": "黑龙江",
        "city": "哈尔滨",
        "district": "道里区",
        "middle_address": "",
        "show_address": "都市秀景",
        "full_address": "黑龙江哈尔滨道里区都市秀景",
        "id": "dd16b09848be039873ab4ecb7b9f9646",
        "article_source": [
          {
            "title": "【疫情速报】2月18日哈尔滨市新增2例确诊患者活动轨迹",
            "url": "https://mp.weixin.qq.com/s/93EJ22aSUJ01Nl-9_-IJtw"
          }
        ],
        "cnt_sum_certain": "1",
        "release_date": "20200219",
        "lng": "126.586571",
        "lat": "45.734192",
        "source": [],
        "communitytype": 2,
        "distance": -1
      },
      {
        "province": "黑龙江",
        "city": "哈尔滨",
        "district": "道里区",
        "middle_address": "",
        "show_address": "星光耀二期",
        "full_address": "黑龙江哈尔滨道里区星光耀二期",
        "id": "072e3bca8e6a4b074d146e483a688420",
        "article_source": [
          {
            "title": "哈尔滨市公布新增3例确诊患者活动轨迹",
            "url": "http://www.harbin.gov.cn/art/2020/2/21/art_98_877079.html"
          }
        ],
        "cnt_sum_certain": "1",
        "release_date": "20200221",
        "lng": "126.527428",
        "lat": "45.73526",
        "source": [],
        "communitytype": 2,
        "distance": -1
      },
      {
        "province": "黑龙江",
        "city": "哈尔滨",
        "district": "道里区",
        "middle_address": "",
        "show_address": "安静街82号",
        "full_address": "黑龙江哈尔滨道里区安静街82号",
        "id": "07c5d6b6e2aae63c4e18bebc5ef55ec9",
        "article_source": [
          {
            "title": "哈尔滨市公布新增3例确诊患者活动轨迹",
            "url": "http://www.harbin.gov.cn/art/2020/2/21/art_98_877079.html"
          }
        ],
        "cnt_sum_certain": "1",
        "release_date": "20200221",
        "lng": "126.61338",
        "lat": "45.75964",
        "source": [],
        "communitytype": 2,
        "distance": -1
      }
    ],
    "道外区": [
      {
        "province": "黑龙江",
        "city": "哈尔滨",
        "district": "道外区",
        "middle_address": "",
        "show_address": "市胸科医院",
        "full_address": "黑龙江哈尔滨道外区市胸科医院",
        "id": "22947ca4d6834fe9fe9d1fd63c466434",
        "article_source": [
          {
            "title": "【疫情速报】2月18日哈尔滨市新增2例确诊患者活动轨迹",
            "url": "https://mp.weixin.qq.com/s/93EJ22aSUJ01Nl-9_-IJtw"
          }
        ],
        "cnt_sum_certain": "1",
        "release_date": "20200219",
        "lng": "126.642464",
        "lat": "45.756966",
        "source": [],
        "communitytype": 2,
        "distance": -1
      },
      {
        "province": "黑龙江",
        "city": "哈尔滨",
        "district": "道外区",
        "middle_address": "",
        "show_address": "市胸科医院餐厅",
        "full_address": "黑龙江哈尔滨道外区市胸科医院餐厅",
        "id": "830151d03dc90cabbb69242339a3fccb",
        "article_source": [
          {
            "title": "【疫情速报】2月18日哈尔滨市新增2例确诊患者活动轨迹",
            "url": "https://mp.weixin.qq.com/s/93EJ22aSUJ01Nl-9_-IJtw"
          }
        ],
        "cnt_sum_certain": "1",
        "release_date": "20200219",
        "lng": "126.697029",
        "lat": "45.768608",
        "source": [],
        "communitytype": 2,
        "distance": -1
      }
    ],
    "五常市": [
      {
        "province": "黑龙江",
        "city": "哈尔滨",
        "district": "五常市",
        "middle_address": "建设大街425号",
        "show_address": "宝立小区",
        "full_address": "黑龙江哈尔滨五常市建设大街425号宝立小区",
        "id": "ab9001356a870f3143f3c3c4ae861e63",
        "article_source": [
          {
            "title": "哈尔滨市公布新增3例确诊患者活动轨迹",
            "url": "http://www.harbin.gov.cn/art/2020/2/21/art_98_877079.html"
          },
          {
            "title": "哈尔滨市公布新增3例确诊患者活动轨迹",
            "url": "http://www.harbin.gov.cn/art/2020/2/21/art_98_877079.html"
          }
        ],
        "cnt_sum_certain": "2",
        "release_date": "20200221",
        "lng": "127.16881",
        "lat": "44.91703",
        "source": [],
        "communitytype": 2,
        "distance": -1
      },
      {
        "province": "黑龙江",
        "city": "哈尔滨",
        "district": "五常市",
        "middle_address": "",
        "show_address": "五常市人民医院",
        "full_address": "黑龙江哈尔滨五常市五常市人民医院",
        "id": "8352883f463a049e461d8140579fc92d",
        "article_source": [
          {
            "title": "哈尔滨市公布新增3例确诊患者活动轨迹",
            "url": "http://www.harbin.gov.cn/art/2020/2/21/art_98_877079.html"
          },
          {
            "title": "哈尔滨市公布新增3例确诊患者活动轨迹",
            "url": "http://www.harbin.gov.cn/art/2020/2/21/art_98_877079.html"
          }
        ],
        "cnt_sum_certain": "2",
        "release_date": "20200221",
        "lng": "127.605301",
        "lat": "44.905769",
        "source": [],
        "communitytype": 2,
        "distance": -1
      }
    ]
  },
  "大庆市": {
    "胡路区": [
      {
        "province": "黑龙江",
        "city": "大庆市",
        "district": "胡路区",
        "middle_address": "",
        "show_address": "龙南医院",
        "full_address": "黑龙江大庆市胡路区龙南医院",
        "id": "1e6990c3be129d9d05c6705a05479a57",
        "article_source": [
          {
            "title": "大庆市2月19日新增3例确诊病例行动轨迹",
            "url": "http://www.daqing.gov.cn/zfgz/zfgg/653743.shtml"
          }
        ],
        "cnt_sum_certain": "1",
        "release_date": "20200220",
        "lng": "124.894768",
        "lat": "46.623161",
        "source": [],
        "communitytype": 2,
        "distance": -1
      }
    ],
    "肇源县": [
      {
        "province": "黑龙江",
        "city": "大庆市",
        "district": "肇源县",
        "middle_address": "",
        "show_address": "肇源广北小区排水公司家属楼",
        "full_address": "黑龙江大庆市肇源县肇源广北小区排水公司家属楼",
        "id": "a326fb5c0b67179004e54c242353578f",
        "article_source": [
          {
            "title": "大庆市2月16日新增1例确诊病例行动轨迹",
            "url": "http://wsjkw.hlj.gov.cn/index.php/Home/News/show/newsid/7922/navid/31/id/2%20%20%20%20%20%20%20%20%20%20%20%20%20%20%20%20%20%20%20%20%20%20%20%20%20%20%20http://www.daqing.gov.cn/zfgz/zfgg/index.shtml"
          }
        ],
        "cnt_sum_certain": "1",
        "release_date": "20200218",
        "lng": "125.078499",
        "lat": "45.524921",
        "source": [],
        "communitytype": 2,
        "distance": -1
      },
      {
        "province": "黑龙江",
        "city": "大庆市",
        "district": "肇源县",
        "middle_address": "",
        "show_address": "肇源县总医院",
        "full_address": "黑龙江大庆市肇源县肇源县总医院",
        "id": "961f74be7f3b397d632ddb374b8438f2",
        "article_source": [
          {
            "title": "大庆市2月16日新增1例确诊病例行动轨迹",
            "url": "http://wsjkw.hlj.gov.cn/index.php/Home/News/show/newsid/7922/navid/31/id/2%20%20%20%20%20%20%20%20%20%20%20%20%20%20%20%20%20%20%20%20%20%20%20%20%20%20%20http://www.daqing.gov.cn/zfgz/zfgg/index.shtml"
          }
        ],
        "cnt_sum_certain": "1",
        "release_date": "20200218",
        "lng": "125.07798",
        "lat": "45.51403",
        "source": [],
        "communitytype": 2,
        "distance": -1
      }
    ],
    "红岗区": [
      {
        "province": "黑龙江",
        "city": "大庆市",
        "district": "红岗区",
        "middle_address": "",
        "show_address": "市第二医院",
        "full_address": "黑龙江大庆市红岗区市第二医院",
        "id": "57a44795ac0f5bde2c5f99203e29aab6",
        "article_source": [
          {
            "title": "大庆市2月16日新增1例确诊病例行动轨迹",
            "url": "http://wsjkw.hlj.gov.cn/index.php/Home/News/show/newsid/7922/navid/31/id/2%20%20%20%20%20%20%20%20%20%20%20%20%20%20%20%20%20%20%20%20%20%20%20%20%20%20%20http://www.daqing.gov.cn/zfgz/zfgg/index.shtml"
          }
        ],
        "cnt_sum_certain": "1",
        "release_date": "20200218",
        "lng": "125.001289",
        "lat": "46.55616",
        "source": [],
        "communitytype": 2,
        "distance": -1
      }
    ]
  },
  "齐齐哈尔市": {
    "龙沙区": [
      {
        "province": "黑龙江",
        "city": "齐齐哈尔市",
        "district": "龙沙区",
        "middle_address": "湖滨街道",
        "show_address": "龙沙区湖滨街道锦江阁二期23号楼1门",
        "full_address": "黑龙江齐齐哈尔市龙沙区湖滨街道龙沙区湖滨街道锦江阁二期23号楼1门",
        "id": "9a052b7031579a8bd2295bdc1d7b3d8f",
        "article_source": [
          {
            "title": "紧急扩散！齐齐哈尔17例确诊病例活动轨迹公布",
            "url": "https://www.sohu.com/a/370755728_338398"
          }
        ],
        "cnt_sum_certain": "1",
        "release_date": "20200205",
        "lng": "123.927806",
        "lat": "47.336584",
        "source": [],
        "communitytype": 2,
        "distance": -1
      }
    ]
  },
  "七台河市": {
    "桃山区": [
      {
        "province": "黑龙江",
        "city": "七台河市",
        "district": "桃山区",
        "middle_address": "",
        "show_address": "市人民医院",
        "full_address": "黑龙江七台河市桃山区市人民医院",
        "id": "56f18db0e22ebcac4f4d124b86a91a1d",
        "article_source": [
          {
            "title": "​发布会直击| 七台河市新增的第17例确诊病例行动轨迹",
            "url": "https://mp.weixin.qq.com/s/Qos1ogFIIi9pI4-iNr8qEw"
          }
        ],
        "cnt_sum_certain": "1",
        "release_date": "20200219",
        "lng": "131.006058",
        "lat": "45.774349",
        "source": [],
        "communitytype": 2,
        "distance": -1
      }
    ],
    "金沙区": [
      {
        "province": "黑龙江",
        "city": "七台河市",
        "district": "金沙区",
        "middle_address": "",
        "show_address": "如意家园小区",
        "full_address": "黑龙江七台河市金沙区如意家园小区",
        "id": "f89edb66047d16db59dd7032bed127c4",
        "article_source": [
          {
            "title": "​发布会直击| 七台河市新增的第17例确诊病例行动轨迹",
            "url": "https://mp.weixin.qq.com/s/Qos1ogFIIi9pI4-iNr8qEw"
          }
        ],
        "cnt_sum_certain": "1",
        "release_date": "20200219",
        "lng": "131.184113",
        "lat": "45.816002",
        "source": [],
        "communitytype": 2,
        "distance": -1
      }
    ]
  }
}}